[
    {
        "name": "PASS COMPANY SRL",
        "address": "DELLINDUSTRIA, 1/3",
        "zipCode": 35044,
        "town": "Montagnana",
        "province": "PD",
        "region": "VENETO",
        "coords": {
            "lat": 43.9581563,
            "lng": 10.1688154
        }
    },
    {
        "name": "PASS COMPANY SRL",
        "address": "DELLINDUSTRIA, 1/3",
        "zipCode": 35044,
        "town": "Montagnana",
        "province": "PD",
        "region": "VENETO",
        "coords": {
            "lat": 43.9581563,
            "lng": 10.1688154
        }
    },
    {
        "name": "PASS COMPANY SRL",
        "address": "DELLINDUSTRIA, 1/3",
        "zipCode": 35044,
        "town": "Montagnana",
        "province": "PD",
        "region": "VENETO",
        "coords": {
            "lat": 43.9581563,
            "lng": 10.1688154
        }
    },
    {
        "name": "PASS COMPANY SRL",
        "address": "DELLINDUSTRIA, 1/3",
        "zipCode": 35044,
        "town": "Montagnana",
        "province": "PD",
        "region": "VENETO",
        "coords": {
            "lat": 43.9581563,
            "lng": 10.1688154
        }
    },
    {
        "name": "PASS COMPANY SRL",
        "address": "DELLINDUSTRIA, 1/3",
        "zipCode": 35044,
        "town": "Montagnana",
        "province": "PD",
        "region": "VENETO",
        "coords": {
            "lat": 43.9581563,
            "lng": 10.1688154
        }
    },
    {
        "name": "PASS COMPANY SRL",
        "address": "DELLINDUSTRIA, 1/3",
        "zipCode": 35044,
        "town": "Montagnana",
        "province": "PD",
        "region": "VENETO",
        "coords": {
            "lat": 43.9581563,
            "lng": 10.1688154
        }
    },
    {
        "name": "PASS COMPANY SRL",
        "address": "DELLINDUSTRIA, 1/3",
        "zipCode": 35044,
        "town": "Montagnana",
        "province": "PD",
        "region": "VENETO",
        "coords": {
            "lat": 43.9581563,
            "lng": 10.1688154
        }
    },
    {
        "name": "PASS COMPANY SRL",
        "address": "DELLINDUSTRIA, 1/3",
        "zipCode": 35044,
        "town": "Montagnana",
        "province": "PD",
        "region": "VENETO",
        "coords": {
            "lat": 43.9581563,
            "lng": 10.1688154
        }
    },
    {
        "name": "PASS COMPANY SRL",
        "address": "DELLINDUSTRIA, 1/3",
        "zipCode": 35044,
        "town": "Montagnana",
        "province": "PD",
        "region": "VENETO",
        "coords": {
            "lat": 43.9581563,
            "lng": 10.1688154
        }
    },
    {
        "name": "PASS COMPANY SRL",
        "address": "DELLINDUSTRIA, 1/3",
        "zipCode": 35044,
        "town": "Montagnana",
        "province": "PD",
        "region": "VENETO",
        "coords": {
            "lat": 43.9581563,
            "lng": 10.1688154
        }
    },
    {
        "name": "PASS COMPANY SRL",
        "address": "DELLINDUSTRIA, 1/3",
        "zipCode": 35044,
        "town": "Montagnana",
        "province": "PD",
        "region": "VENETO",
        "coords": {
            "lat": 43.9581563,
            "lng": 10.1688154
        }
    },
    {
        "name": "PASS COMPANY SRL",
        "address": "DELLINDUSTRIA, 1/3",
        "zipCode": 35044,
        "town": "Montagnana",
        "province": "PD",
        "region": "VENETO",
        "coords": {
            "lat": 43.9581563,
            "lng": 10.1688154
        }
    },
    {
        "name": "PASS COMPANY SRL",
        "address": "DELLINDUSTRIA, 1/3",
        "zipCode": 35044,
        "town": "Montagnana",
        "province": "PD",
        "region": "VENETO",
        "coords": {
            "lat": 43.9581563,
            "lng": 10.1688154
        }
    },
    {
        "name": "PASS COMPANY SRL",
        "address": "DELLINDUSTRIA, 1/3",
        "zipCode": 35044,
        "town": "Montagnana",
        "province": "PD",
        "region": "VENETO",
        "coords": {
            "lat": 43.9581563,
            "lng": 10.1688154
        }
    },
    {
        "name": "PASS COMPANY SRL",
        "address": "DELLINDUSTRIA, 1/3",
        "zipCode": 35044,
        "town": "Montagnana",
        "province": "PD",
        "region": "VENETO",
        "coords": {
            "lat": 43.9581563,
            "lng": 10.1688154
        }
    },
    {
        "name": "PASS COMPANY SRL",
        "address": "DELLINDUSTRIA, 1/3",
        "zipCode": 35044,
        "town": "Montagnana",
        "province": "PD",
        "region": "VENETO",
        "coords": {
            "lat": 43.9581563,
            "lng": 10.1688154
        }
    },
    {
        "name": "PASS COMPANY SRL",
        "address": "DELLINDUSTRIA, 1/3",
        "zipCode": 35044,
        "town": "Montagnana",
        "province": "PD",
        "region": "VENETO",
        "coords": {
            "lat": 43.9581563,
            "lng": 10.1688154
        }
    },
    {
        "name": "PASS COMPANY SRL",
        "address": "DELLINDUSTRIA, 1/3",
        "zipCode": 35044,
        "town": "Montagnana",
        "province": "PD",
        "region": "VENETO",
        "coords": {
            "lat": 43.9581563,
            "lng": 10.1688154
        }
    },
    {
        "name": "PASS COMPANY SRL",
        "address": "DELLINDUSTRIA, 1/3",
        "zipCode": 35044,
        "town": "Montagnana",
        "province": "PD",
        "region": "VENETO",
        "coords": {
            "lat": 43.9581563,
            "lng": 10.1688154
        }
    },
    {
        "name": "PASS COMPANY SRL",
        "address": "DELLINDUSTRIA, 1/3",
        "zipCode": 35044,
        "town": "Montagnana",
        "province": "PD",
        "region": "VENETO",
        "coords": {
            "lat": 43.9581563,
            "lng": 10.1688154
        }
    },
    {
        "name": "PASS COMPANY SRL",
        "address": "DELLINDUSTRIA, 1/3",
        "zipCode": 35044,
        "town": "Montagnana",
        "province": "PD",
        "region": "VENETO",
        "coords": {
            "lat": 43.9581563,
            "lng": 10.1688154
        }
    },
    {
        "name": "PASS COMPANY SRL",
        "address": "DELLINDUSTRIA, 1/3",
        "zipCode": 35044,
        "town": "Montagnana",
        "province": "PD",
        "region": "VENETO",
        "coords": {
            "lat": 43.9581563,
            "lng": 10.1688154
        }
    },
    {
        "name": "PASS COMPANY SRL",
        "address": "DELLINDUSTRIA, 1/3",
        "zipCode": 35044,
        "town": "Montagnana",
        "province": "PD",
        "region": "VENETO",
        "coords": {
            "lat": 43.9581563,
            "lng": 10.1688154
        }
    },
    {
        "name": "PASS COMPANY SRL",
        "address": "DELLINDUSTRIA, 1/3",
        "zipCode": 35044,
        "town": "Montagnana",
        "province": "PD",
        "region": "VENETO",
        "coords": {
            "lat": 43.9581563,
            "lng": 10.1688154
        }
    },
    {
        "name": "PASS COMPANY SRL",
        "address": "DELLINDUSTRIA, 1/3",
        "zipCode": 35044,
        "town": "Montagnana",
        "province": "PD",
        "region": "VENETO",
        "coords": {
            "lat": 43.9581563,
            "lng": 10.1688154
        }
    },
    {
        "name": "PASS COMPANY SRL",
        "address": "DELLINDUSTRIA, 1/3",
        "zipCode": 35044,
        "town": "Montagnana",
        "province": "PD",
        "region": "VENETO",
        "coords": {
            "lat": 43.9581563,
            "lng": 10.1688154
        }
    },
    {
        "name": "PASS COMPANY SRL",
        "address": "DELLINDUSTRIA, 1/3",
        "zipCode": 35044,
        "town": "Montagnana",
        "province": "PD",
        "region": "VENETO",
        "coords": {
            "lat": 43.9581563,
            "lng": 10.1688154
        }
    },
    {
        "name": "PASS COMPANY SRL",
        "address": "DELLINDUSTRIA, 1/3",
        "zipCode": 35044,
        "town": "Montagnana",
        "province": "PD",
        "region": "VENETO",
        "coords": {
            "lat": 43.9581563,
            "lng": 10.1688154
        }
    },
    {
        "name": "PASS COMPANY SRL",
        "address": "DELLINDUSTRIA, 1/3",
        "zipCode": 35044,
        "town": "Montagnana",
        "province": "PD",
        "region": "VENETO",
        "coords": {
            "lat": 43.9581563,
            "lng": 10.1688154
        }
    },
    {
        "name": "PASS COMPANY SRL",
        "address": "DELLINDUSTRIA, 1/3",
        "zipCode": 35044,
        "town": "Montagnana",
        "province": "PD",
        "region": "VENETO",
        "coords": {
            "lat": 43.9581563,
            "lng": 10.1688154
        }
    },
    {
        "name": "PASS COMPANY SRL",
        "address": "DELLINDUSTRIA, 1/3",
        "zipCode": 35044,
        "town": "Montagnana",
        "province": "PD",
        "region": "VENETO",
        "coords": {
            "lat": 43.9581563,
            "lng": 10.1688154
        }
    },
    {
        "name": "PASS COMPANY SRL",
        "address": "DELLINDUSTRIA, 1/3",
        "zipCode": 35044,
        "town": "Montagnana",
        "province": "PD",
        "region": "VENETO",
        "coords": {
            "lat": 43.9581563,
            "lng": 10.1688154
        }
    },
    {
        "name": "PASS COMPANY SRL",
        "address": "DELLINDUSTRIA, 1/3",
        "zipCode": 35044,
        "town": "Montagnana",
        "province": "PD",
        "region": "VENETO",
        "coords": {
            "lat": 43.9581563,
            "lng": 10.1688154
        }
    },
    {
        "name": "PASS COMPANY SRL",
        "address": "DELLINDUSTRIA, 1/3",
        "zipCode": 35044,
        "town": "Montagnana",
        "province": "PD",
        "region": "VENETO",
        "coords": {
            "lat": 43.9581563,
            "lng": 10.1688154
        }
    },
    {
        "name": "PASS COMPANY SRL",
        "address": "DELLINDUSTRIA, 1/3",
        "zipCode": 35044,
        "town": "Montagnana",
        "province": "PD",
        "region": "VENETO",
        "coords": {
            "lat": 43.9581563,
            "lng": 10.1688154
        }
    },
    {
        "name": "PASS COMPANY SRL",
        "address": "DELLINDUSTRIA, 1/3",
        "zipCode": 35044,
        "town": "Montagnana",
        "province": "PD",
        "region": "VENETO",
        "coords": {
            "lat": 43.9581563,
            "lng": 10.1688154
        }
    },
    {
        "name": "PASS COMPANY SRL",
        "address": "DELLINDUSTRIA, 1/3",
        "zipCode": 35044,
        "town": "Montagnana",
        "province": "PD",
        "region": "VENETO",
        "coords": {
            "lat": 43.9581563,
            "lng": 10.1688154
        }
    },
    {
        "name": "PASS COMPANY SRL",
        "address": "DELLINDUSTRIA, 1/3",
        "zipCode": 35044,
        "town": "Montagnana",
        "province": "PD",
        "region": "VENETO",
        "coords": {
            "lat": 43.9581563,
            "lng": 10.1688154
        }
    },
    {
        "name": "PASS COMPANY SRL",
        "address": "DELLINDUSTRIA, 1/3",
        "zipCode": 35044,
        "town": "Montagnana",
        "province": "PD",
        "region": "VENETO",
        "coords": {
            "lat": 43.9581563,
            "lng": 10.1688154
        }
    },
    {
        "name": "PASS COMPANY SRL",
        "address": "DELLINDUSTRIA, 1/3",
        "zipCode": 35044,
        "town": "Montagnana",
        "province": "PD",
        "region": "VENETO",
        "coords": {
            "lat": 43.9581563,
            "lng": 10.1688154
        }
    },
    {
        "name": "PASS COMPANY SRL",
        "address": "DELLINDUSTRIA, 1/3",
        "zipCode": 35044,
        "town": "Montagnana",
        "province": "PD",
        "region": "VENETO",
        "coords": {
            "lat": 43.9581563,
            "lng": 10.1688154
        }
    },
    {
        "name": "PASS COMPANY SRL",
        "address": "DELLINDUSTRIA, 1/3",
        "zipCode": 35044,
        "town": "Montagnana",
        "province": "PD",
        "region": "VENETO",
        "coords": {
            "lat": 43.9581563,
            "lng": 10.1688154
        }
    },
    {
        "name": "PASS COMPANY SRL",
        "address": "DELLINDUSTRIA, 1/3",
        "zipCode": 35044,
        "town": "Montagnana",
        "province": "PD",
        "region": "VENETO",
        "coords": {
            "lat": 43.9581563,
            "lng": 10.1688154
        }
    },
    {
        "name": "PASS COMPANY SRL",
        "address": "DELLINDUSTRIA, 1/3",
        "zipCode": 35044,
        "town": "Montagnana",
        "province": "PD",
        "region": "VENETO",
        "coords": {
            "lat": 43.9581563,
            "lng": 10.1688154
        }
    },
    {
        "name": "PASS COMPANY SRL",
        "address": "DELLINDUSTRIA, 1/3",
        "zipCode": 35044,
        "town": "Montagnana",
        "province": "PD",
        "region": "VENETO",
        "coords": {
            "lat": 43.9581563,
            "lng": 10.1688154
        }
    },
    {
        "name": "PASS COMPANY SRL",
        "address": "DELLINDUSTRIA, 1/3",
        "zipCode": 35044,
        "town": "Montagnana",
        "province": "PD",
        "region": "VENETO",
        "coords": {
            "lat": 43.9581563,
            "lng": 10.1688154
        }
    },
    {
        "name": "PASS COMPANY SRL",
        "address": "DELLINDUSTRIA, 1/3",
        "zipCode": 35044,
        "town": "Montagnana",
        "province": "PD",
        "region": "VENETO",
        "coords": {
            "lat": 43.9581563,
            "lng": 10.1688154
        }
    },
    {
        "name": "PASS COMPANY SRL",
        "address": "DELLINDUSTRIA, 1/3",
        "zipCode": 35044,
        "town": "Montagnana",
        "province": "PD",
        "region": "VENETO",
        "coords": {
            "lat": 43.9581563,
            "lng": 10.1688154
        }
    },
    {
        "name": "PASS COMPANY SRL",
        "address": "DELLINDUSTRIA, 1/3",
        "zipCode": 35044,
        "town": "Montagnana",
        "province": "PD",
        "region": "VENETO",
        "coords": {
            "lat": 43.9581563,
            "lng": 10.1688154
        }
    },
    {
        "name": "PASS COMPANY SRL",
        "address": "DELLINDUSTRIA, 1/3",
        "zipCode": 35044,
        "town": "Montagnana",
        "province": "PD",
        "region": "VENETO",
        "coords": {
            "lat": 43.9581563,
            "lng": 10.1688154
        }
    },
    {
        "name": "PASS COMPANY SRL",
        "address": "DELLINDUSTRIA, 1/3",
        "zipCode": 35044,
        "town": "Montagnana",
        "province": "PD",
        "region": "VENETO",
        "coords": {
            "lat": 43.9581563,
            "lng": 10.1688154
        }
    },
    {
        "name": "PASS COMPANY SRL",
        "address": "DELLINDUSTRIA, 1/3",
        "zipCode": 35044,
        "town": "Montagnana",
        "province": "PD",
        "region": "VENETO",
        "coords": {
            "lat": 43.9581563,
            "lng": 10.1688154
        }
    },
    {
        "name": "PASS COMPANY SRL",
        "address": "DELLINDUSTRIA, 1/3",
        "zipCode": 35044,
        "town": "Montagnana",
        "province": "PD",
        "region": "VENETO",
        "coords": {
            "lat": 43.9581563,
            "lng": 10.1688154
        }
    },
    {
        "name": "PASS COMPANY SRL",
        "address": "DELLINDUSTRIA, 1/3",
        "zipCode": 35044,
        "town": "Montagnana",
        "province": "PD",
        "region": "VENETO",
        "coords": {
            "lat": 43.9581563,
            "lng": 10.1688154
        }
    },
    {
        "name": "PASS COMPANY SRL",
        "address": "DELLINDUSTRIA, 1/3",
        "zipCode": 35044,
        "town": "Montagnana",
        "province": "PD",
        "region": "VENETO",
        "coords": {
            "lat": 43.9581563,
            "lng": 10.1688154
        }
    },
    {
        "name": "PASS COMPANY SRL",
        "address": "DELLINDUSTRIA, 1/3",
        "zipCode": 35044,
        "town": "Montagnana",
        "province": "PD",
        "region": "VENETO",
        "coords": {
            "lat": 43.9581563,
            "lng": 10.1688154
        }
    },
    {
        "name": "PASS COMPANY SRL",
        "address": "DELLINDUSTRIA, 1/3",
        "zipCode": 35044,
        "town": "Montagnana",
        "province": "PD",
        "region": "VENETO",
        "coords": {
            "lat": 43.9581563,
            "lng": 10.1688154
        }
    },
    {
        "name": "PASS COMPANY SRL",
        "address": "DELLINDUSTRIA, 1/3",
        "zipCode": 35044,
        "town": "Montagnana",
        "province": "PD",
        "region": "VENETO",
        "coords": {
            "lat": 43.9581563,
            "lng": 10.1688154
        }
    },
    {
        "name": "PASS COMPANY SRL",
        "address": "DELLINDUSTRIA, 1/3",
        "zipCode": 35044,
        "town": "Montagnana",
        "province": "PD",
        "region": "VENETO",
        "coords": {
            "lat": 43.9581563,
            "lng": 10.1688154
        }
    },
    {
        "name": "PASS COMPANY SRL",
        "address": "DELLINDUSTRIA, 1/3",
        "zipCode": 35044,
        "town": "Montagnana",
        "province": "PD",
        "region": "VENETO",
        "coords": {
            "lat": 43.9581563,
            "lng": 10.1688154
        }
    },
    {
        "name": "PASS COMPANY SRL",
        "address": "DELLINDUSTRIA, 1/3",
        "zipCode": 35044,
        "town": "Montagnana",
        "province": "PD",
        "region": "VENETO",
        "coords": {
            "lat": 43.9581563,
            "lng": 10.1688154
        }
    },
    {
        "name": "PASS COMPANY SRL",
        "address": "DELLINDUSTRIA, 1/3",
        "zipCode": 35044,
        "town": "Montagnana",
        "province": "PD",
        "region": "VENETO",
        "coords": {
            "lat": 43.9581563,
            "lng": 10.1688154
        }
    },
    {
        "name": "PASS COMPANY SRL",
        "address": "DELLINDUSTRIA, 1/3",
        "zipCode": 35044,
        "town": "Montagnana",
        "province": "PD",
        "region": "VENETO",
        "coords": {
            "lat": 43.9581563,
            "lng": 10.1688154
        }
    },
    {
        "name": "PASS COMPANY SRL",
        "address": "DELLINDUSTRIA, 1/3",
        "zipCode": 35044,
        "town": "Montagnana",
        "province": "PD",
        "region": "VENETO",
        "coords": {
            "lat": 43.9581563,
            "lng": 10.1688154
        }
    },
    {
        "name": "PASS COMPANY SRL",
        "address": "DELLINDUSTRIA, 1/3",
        "zipCode": 35044,
        "town": "Montagnana",
        "province": "PD",
        "region": "VENETO",
        "coords": {
            "lat": 43.9581563,
            "lng": 10.1688154
        }
    },
    {
        "name": "PASS COMPANY SRL",
        "address": "DELLINDUSTRIA, 1/3",
        "zipCode": 35044,
        "town": "Montagnana",
        "province": "PD",
        "region": "VENETO",
        "coords": {
            "lat": 43.9581563,
            "lng": 10.1688154
        }
    },
    {
        "name": "PASS COMPANY SRL",
        "address": "DELLINDUSTRIA, 1/3",
        "zipCode": 35044,
        "town": "Montagnana",
        "province": "PD",
        "region": "VENETO",
        "coords": {
            "lat": 43.9581563,
            "lng": 10.1688154
        }
    },
    {
        "name": "PASS COMPANY SRL",
        "address": "DELLINDUSTRIA, 1/3",
        "zipCode": 35044,
        "town": "Montagnana",
        "province": "PD",
        "region": "VENETO",
        "coords": {
            "lat": 43.9581563,
            "lng": 10.1688154
        }
    },
    {
        "name": "PASS COMPANY SRL",
        "address": "DELLINDUSTRIA, 1/3",
        "zipCode": 35044,
        "town": "Montagnana",
        "province": "PD",
        "region": "VENETO",
        "coords": {
            "lat": 43.9581563,
            "lng": 10.1688154
        }
    },
    {
        "name": "PASS COMPANY SRL",
        "address": "DELLINDUSTRIA, 1/3",
        "zipCode": 35044,
        "town": "Montagnana",
        "province": "PD",
        "region": "VENETO",
        "coords": {
            "lat": 43.9581563,
            "lng": 10.1688154
        }
    },
    {
        "name": "PASS COMPANY SRL",
        "address": "DELLINDUSTRIA, 1/3",
        "zipCode": 35044,
        "town": "Montagnana",
        "province": "PD",
        "region": "VENETO",
        "coords": {
            "lat": 43.9581563,
            "lng": 10.1688154
        }
    }
]